  index,   time,    ref,ctrl_LR,ctrl_FB,ctrl_UD,ctrl_YA,  pitch,   roll,    yaw,    vgx,    vgy,    vgz,   templ,   temph,    tof,      h,    bat,   baro,   time,    agx,    agy,    agz
['100.0\r\n', '6dm\r\n', '32s\r\n', 1607245764.8800752, 10, 30, 10]
['ok', '100.0\r\n', '7dm\r\n', 1607245765.9673684, 10, 8, 10]
['33s\r\n', '7dm\r\n', '34s\r\n', 1607245766.5664265, 10, 30, 10]
['100.0\r\n', False, '35s\r\n', 1607245767.5418954, 0, 0, 0]
['100.0\r\n', '8dm\r\n', '35s\r\n', 1607245768.0491004, 10, -30, 10]
['100.0\r\n', '8dm\r\n', '36s\r\n', 1607245768.5533073, 10, -30, 10]
['100.0\r\n', '7dm\r\n', '36s\r\n', 1607245769.0704956, 10, -30, 10]
['100.0\r\n', '7dm\r\n', '37s\r\n', 1607245769.52678, 10, -30, 10]
['100.0\r\n', '6dm\r\n', '37s\r\n', 1607245769.9830632, 10, 5, 10]
['100.0\r\n', '6dm\r\n', '38s\r\n', 1607245770.4493308, 9, 30, 10]
['100.0\r\n', '6dm\r\n', '38s\r\n', 1607245770.9036167, 6, 30, 10]
['100.0\r\n', False, '39s\r\n', 1607245771.767261, 3, 24, 10]
['100.0\r\n', '7dm\r\n', '40s\r\n', 1607245772.178617, -1, -22, 10]
['100.0\r\n', '7dm\r\n', '40s\r\n', 1607245772.5869746, -1, -30, 7]
['100.0\r\n', '7dm\r\n', '40s\r\n', 1607245773.0023217, -1, -30, 5]
['100.0\r\n', '6dm\r\n', '41s\r\n', 1607245773.4066873, 0, -9, 2]
['100.0\r\n', '6dm\r\n', '41s\r\n', 1607245773.8160474, 0, 18, 0]
['100.0\r\n', '5dm\r\n', '42s\r\n', 1607245774.2264, 1, 29, -4]
['100.0\r\n', '6dm\r\n', '42s\r\n', 1607245774.6327634, 0, 23, -5]
['100.0\r\n', '6dm\r\n', '42s\r\n', 1607245775.0371273, 0, 8, -4]
['100.0\r\n', '6dm\r\n', '43s\r\n', 1607245775.4474847, 0, -6, -3]
['100.0\r\n', '6dm\r\n', '43s\r\n', 1607245775.849851, 0, -11, -2]
['100.0\r\n', '6dm\r\n', '44s\r\n', 1607245776.2632034, 1, -13, -2]
['100.0\r\n', '6dm\r\n', '44s\r\n', 1607245776.6705627, 1, -11, -2]
['100.0\r\n', '6dm\r\n', '44s\r\n', 1607245777.0779245, 2, -9, -3]
['100.0\r\n', '6dm\r\n', '45s\r\n', 1607245777.483288, 2, -8, -4]
['100.0\r\n', '6dm\r\n', '45s\r\n', 1607245777.8946414, 2, -9, -5]
['100.0\r\n', '6dm\r\n', '46s\r\n', 1607245778.3020017, 2, -10, -5]
['100.0\r\n', '6dm\r\n', '46s\r\n', 1607245778.7173514, 2, -10, -7]
['100.0\r\n', '6dm\r\n', '46s\r\n', 1607245779.1247098, 2, -7, -8]
['100.0\r\n', '6dm\r\n', '47s\r\n', 1607245779.527081, 2, -3, -8]
['100.0\r\n', '6dm\r\n', '47s\r\n', 1607245779.9364362, 2, 0, -8]
['100.0\r\n', '6dm\r\n', '48s\r\n', 1607245780.3637645, 3, 2, -8]
['100.0\r\n', '6dm\r\n', '48s\r\n', 1607245780.8020773, 3, 2, -7]
['100.0\r\n', '6dm\r\n', '49s\r\n', 1607245781.2124374, 3, 0, -7]
['100.0\r\n', '6dm\r\n', '49s\r\n', 1607245781.6128054, 4, -3, -6]
['100.0\r\n', '6dm\r\n', '49s\r\n', 1607245781.9812264, 4, -9, -6]
['100.0\r\n', '6dm\r\n', '50s\r\n', 1607245782.3975728, 5, -13, -5]
['100.0\r\n', '6dm\r\n', '50s\r\n', 1607245782.7929523, 5, -12, -5]
['100.0\r\n', '6dm\r\n', '51s\r\n', 1607245783.2013102, 5, -6, -6]
['100.0\r\n', '6dm\r\n', '51s\r\n', 1607245783.6106694, 5, -1, -5]
['100.0\r\n', '6dm\r\n', '51s\r\n', 1607245784.0170307, 5, -3, -5]
['100.0\r\n', '6dm\r\n', '52s\r\n', 1607245784.426388, 4, -4, -6]
['100.0\r\n', '6dm\r\n', '52s\r\n', 1607245784.8347461, 4, -2, -6]
['100.0\r\n', '6dm\r\n', '53s\r\n', 1607245785.245103, 4, 0, -7]
['100.0\r\n', '6dm\r\n', '53s\r\n', 1607245785.6624477, 4, 0, -8]
['100.0\r\n', '6dm\r\n', '53s\r\n', 1607245786.0578272, 4, 2, -9]
['100.0\r\n', '6dm\r\n', '54s\r\n', 1607245786.4272466, 4, 2, -9]
['100.0\r\n', '6dm\r\n', '54s\r\n', 1607245786.8186336, 4, 2, -8]
['100.0\r\n', '6dm\r\n', '55s\r\n', 1607245787.2319832, 4, 0, -8]
['100.0\r\n', '6dm\r\n', '55s\r\n', 1607245787.6453352, 4, -1, -7]
['100.0\r\n', '6dm\r\n', '55s\r\n', 1607245788.0437102, 4, -3, -6]
['100.0\r\n', '6dm\r\n', '56s\r\n', 1607245788.4111314, 4, -6, -7]
['100.0\r\n', '6dm\r\n', '56s\r\n', 1607245788.8135002, 5, -7, -6]
['100.0\r\n', '6dm\r\n', '57s\r\n', 1607245789.176932, 5, -9, -6]
['100.0\r\n', '6dm\r\n', '57s\r\n', 1607245789.529376, 4, -10, -6]
['100.0\r\n', '6dm\r\n', '57s\r\n', 1607245789.9427276, 4, -10, -6]
['100.0\r\n', '6dm\r\n', '58s\r\n', 1607245790.348093, 4, -7, -6]
['100.0\r\n', '6dm\r\n', '58s\r\n', 1607245790.7524555, 4, -3, -6]
['100.0\r\n', '6dm\r\n', '59s\r\n', 1607245791.1618145, 4, 0, -6]
['100.0\r\n', '6dm\r\n', '59s\r\n', 1607245791.5701716, 4, 0, -6]
['100.0\r\n', '6dm\r\n', '59s\r\n', 1607245791.9805338, 4, 0, -6]
['100.0\r\n', '6dm\r\n', '60s\r\n', 1607245792.3848937, 4, -2, -5]
['100.0\r\n', '6dm\r\n', '60s\r\n', 1607245792.7952478, 4, -4, -5]
['100.0\r\n', '6dm\r\n', '61s\r\n', 1607245793.1456978, 4, -6, -5]
['100.0\r\n', '6dm\r\n', '61s\r\n', 1607245793.5131223, 4, -7, -5]
['100.0\r\n', '6dm\r\n', '61s\r\n', 1607245793.9114962, 4, -11, -6]
['100.0\r\n', '6dm\r\n', '62s\r\n', 1607245794.2759254, 4, -12, -6]
['100.0\r\n', '6dm\r\n', '62s\r\n', 1607245794.6323643, 4, -12, -6]
['100.0\r\n', '6dm\r\n', '62s\r\n', 1607245795.0407243, 5, -7, -6]
['100.0\r\n', '6dm\r\n', '63s\r\n', 1607245795.4450939, 6, 0, -7]
['100.0\r\n', '5dm\r\n', '63s\r\n', 1607245795.8115153, 5, 3, -7]
['100.0\r\n', '5dm\r\n', '64s\r\n', 1607245796.2138824, 5, 4, -7]
['100.0\r\n', '5dm\r\n', '64s\r\n', 1607245796.5703213, 4, 4, -6]
['100.0\r\n', '5dm\r\n', '64s\r\n', 1607245796.9816785, 3, 2, -5]
['100.0\r\n', '6dm\r\n', '65s\r\n', 1607245797.3850434, 1, -6, -5]
['100.0\r\n', '6dm\r\n', '65s\r\n', 1607245797.7963972, 0, -10, -4]
['100.0\r\n', '6dm\r\n', '66s\r\n', 1607245798.2087529, 0, -10, -4]
['100.0\r\n', '6dm\r\n', '66s\r\n', 1607245798.6171098, 0, -7, -4]
['100.0\r\n', '6dm\r\n', '66s\r\n', 1607245799.017483, 0, -1, -5]
['100.0\r\n', '6dm\r\n', '67s\r\n', 1607245799.428834, 1, 1, -4]
['100.0\r\n', '6dm\r\n', '67s\r\n', 1607245799.84019, 1, 2, -5]
['100.0\r\n', '6dm\r\n', '68s\r\n', 1607245800.2435555, 2, 1, -6]
['100.0\r\n', '6dm\r\n', '68s\r\n', 1607245800.6109805, 2, 0, -6]
['100.0\r\n', '6dm\r\n', '68s\r\n', 1607245801.0083563, 2, 0, -6]
['100.0\r\n', '6dm\r\n', '69s\r\n', 1607245801.4286964, 3, 0, -6]
['100.0\r\n', '6dm\r\n', '69s\r\n', 1607245801.830065, 3, -1, -5]
['100.0\r\n', '6dm\r\n', '70s\r\n', 1607245802.24242, 4, -4, -5]
['100.0\r\n', '6dm\r\n', '70s\r\n', 1607245802.6437898, 5, -5, -5]
['100.0\r\n', '6dm\r\n', '70s\r\n', 1607245803.050149, 6, -6, -4]
